{
  "town": "Barnstable",
  "state": "Massachusetts",
  "food_and_drink": [
    {
      "name": "Dolphin Restaurant",
      "type": "Seafood",
      "cuisine": "American",
      "price_range": "$$$",
      "address": "3250 Main St, Barnstable, MA 02630",
      "coordinates": {
        "latitude": 41.7001,
        "longitude": -70.3003
      },
      "website": "https://www.dolphinrestaurant.com",
      "hours": "Mon-Sun: 11:30am-9:00pm"
    },
    {
      "name": "Naked Oyster Bistro & Raw Bar",
      "type": "Seafood",
      "cuisine": "Contemporary American",
      "price_range": "$$$",
      "address": "410 Main St, Hyannis, MA 02601",
      "coordinates": {
        "latitude": 41.6520,
        "longitude": -70.2820
      },
      "website": "https://www.nakedoyster.com",
      "hours": "Tue-Sat: 5:00pm-10:00pm"
    },
    {
      "name": "Barnstable Restaurant and Tavern",
      "type": "Pub",
      "cuisine": "American",
      "price_range": "$$",
      "address": "3176 Main St, Barnstable, MA 02630",
      "coordinates": {
        "latitude": 41.7004,
        "longitude": -70.3013
      },
      "website": "https://www.barnstablerestaurant.com",
      "hours": "Mon-Sun: 11:30am-9:00pm"
    },
    {
      "name": "The Daily Paper",
      "type": "Cafe",
      "cuisine": "Breakfast, Brunch",
      "price_range": "$$",
      "address": "546 Main St, Hyannis, MA 02601",
      "coordinates": {
        "latitude": 41.6528,
        "longitude": -70.2800
      },
      "website": "https://www.dailypapercafe.com",
      "hours": "Mon-Sun: 6:00am-2:00pm"
    },
    {
      "name": "Spoon and Seed",
      "type": "Farm-to-table",
      "cuisine": "American",
      "price_range": "$$",
      "address": "12 Thornton Dr, Hyannis, MA 02601",
      "coordinates": {
        "latitude": 41.6617,
        "longitude": -70.2955
      },
      "website": "https://www.spoonandseed.com",
      "hours": "Wed-Sun: 8:00am-2:00pm"
    },
    {
      "name": "Osterville Cheese & Sandwich Shop",
      "type": "Deli",
      "cuisine": "Sandwiches",
      "price_range": "$",
      "address": "5 Wianno Ave, Osterville, MA 02655",
      "coordinates": {
        "latitude": 41.6293,
        "longitude": -70.3851
      },
      "website": "https://www.ostervillecheese.com",
      "hours": "Mon-Sat: 9:00am-4:00pm"
    },
    {
      "name": "Black Cat Tavern",
      "type": "Seafood",
      "cuisine": "American",
      "price_range": "$$",
      "address": "165 Ocean St, Hyannis, MA 02601",
      "coordinates": {
        "latitude": 41.6532,
        "longitude": -70.2721
      },
      "website": "https://www.blackcattavern.com",
      "hours": "Mon-Sun: 11:30am-9:00pm"
    },
    {
      "name": "Pizza Barbone",
      "type": "Pizzeria",
      "cuisine": "Italian",
      "price_range": "$$",
      "address": "390 Main St, Hyannis, MA 02601",
      "coordinates": {
        "latitude": 41.6520,
        "longitude": -70.2826
      },
      "website": "https://www.pizzabarbone.com",
      "hours": "Tue-Sun: 11:30am-9:00pm"
    },
    {
      "name": "Brazilian Grill",
      "type": "Steakhouse",
      "cuisine": "Brazilian",
      "price_range": "$$$",
      "address": "680 Main St, Hyannis, MA 02601",
      "coordinates": {
        "latitude": 41.6514,
        "longitude": -70.2867
      },
      "website": "https://www.braziliangrill.com",
      "hours": "Mon-Sun: 4:00pm-10:00pm"
    },
    {
      "name": "Embargo",
      "type": "Tapas Bar",
      "cuisine": "Mediterranean",
      "price_range": "$$",
      "address": "453 Main St, Hyannis, MA 02601",
      "coordinates": {
        "latitude": 41.6519,
        "longitude": -70.2811
      },
      "website": "https://www.embargocapecod.com",
      "hours": "Tue-Sun: 4:00pm-1:00am"
    },
    {
      "name": "Roadhouse Cafe",
      "type": "Fine Dining",
      "cuisine": "American",
      "price_range": "$$$",
      "address": "488 South St, Hyannis, MA 02601",
      "coordinates": {
        "latitude": 41.6466,
        "longitude": -70.2816
      },
      "website": "https://www.roadhousecafe.com",
      "hours": "Tue-Sun: 5:00pm-10:00pm"
    },
    {
      "name": "Wimpy's Seafood Cafe",
      "type": "Seafood",
      "cuisine": "American",
      "price_range": "$$",
      "address": "752 Main St, Osterville, MA 02655",
      "coordinates": {
        "latitude": 41.6294,
        "longitude": -70.3855
      },
      "website": "https://www.wimpysseafoodcafe.com",
      "hours": "Mon-Sun: 11:30am-9:00pm"
    }
  ]
}